{
  "stores": [
    {
      "store_id": "STR001",
      "name": "99 Speedmart Petaling Jaya",
      "address": "Jalan SS 2/24, SS 2, 47300 Petaling Jaya, Selangor",
      "latitude": 3.1142,
      "longitude": 101.6253,
      "store_type": "grocery"
    },
    {
      "store_id": "STR002",
      "name": "Mydin Mall Subang Jaya",
      "address": "Persiaran Subang Permai, Subang Jaya, 47500 Selangor",
      "latitude": 3.0471,
      "longitude": 101.5869,
      "store_type": "hypermarket"
    },
    {
      "store_id": "STR003",
      "name": "Giant Supermarket Shah Alam",
      "address": "Jalan Plumbum P7/P, Seksyen 7, 40000 Shah Alam, Selangor",
      "latitude": 3.0738,
      "longitude": 101.5183,
      "store_type": "supermarket"
    },
    {
      "store_id": "STR004",
      "name": "Farmasi Puchong Jaya",
      "address": "Jalan Kenari 19, Bandar Puchong Jaya, 47170 Puchong, Selangor",
      "latitude": 3.0305,
      "longitude": 101.6197,
      "store_type": "pharmacy"
    },
    {
      "store_id": "STR005",
      "name": "KK Mart Bangi",
      "address": "Jalan Radin Anum 1, Bandar Baru Bangi, 43650 Selangor",
      "latitude": 2.9266,
      "longitude": 101.7806,
      "store_type": "grocery"
    },
    {
      "store_id": "STR006",
      "name": "Tesco Extra Ampang",
      "address": "Jalan Ampang, Taman Kosas, 68000 Ampang, Selangor",
      "latitude": 3.1478,
      "longitude": 101.7603,
      "store_type": "hypermarket"
    },
    {
      "store_id": "STR007",
      "name": "99 Speedmart Cheras",
      "address": "Jalan Cheras, Taman Midah, 56000 Kuala Lumpur",
      "latitude": 3.1036,
      "longitude": 101.7317,
      "store_type": "grocery"
    },
    {
      "store_id": "STR008",
      "name": "Guardian Pharmacy Mid Valley",
      "address": "Mid Valley Megamall, Lingkaran Syed Putra, 59200 Kuala Lumpur",
      "latitude": 3.1183,
      "longitude": 101.6774,
      "store_type": "pharmacy"
    },
    {
      "store_id": "STR009",
      "name": "Econsave Supermarket Kajang",
      "address": "Jalan Reko, Taman Kajang Sentral, 43000 Kajang, Selangor",
      "latitude": 2.9922,
      "longitude": 101.7889,
      "store_type": "supermarket"
    },
    {
      "store_id": "STR010",
      "name": "Village Grocer Bangsar",
      "address": "Bangsar Village, Jalan Telawi 1, 59100 Kuala Lumpur",
      "latitude": 3.1294,
      "longitude": 101.6702,
      "store_type": "grocery"
    },
    {
      "store_id": "STR011",
      "name": "99 Speedmart Kepong",
      "address": "Jalan Metro Perdana Barat 1, Taman Usahawan Kepong, 52100 Kuala Lumpur",
      "latitude": 3.2140,
      "longitude": 101.6368,
      "store_type": "grocery"
    },
    {
      "store_id": "STR012",
      "name": "Jaya Grocer Mont Kiara",
      "address": "163 Retail Park, Mont Kiara, 50480 Kuala Lumpur",
      "latitude": 3.1725,
      "longitude": 101.6508,
      "store_type": "grocery"
    },
    {
      "store_id": "STR013",
      "name": "Farmasi Setia Alam",
      "address": "Persiaran Setia Dagang, Setia Alam, 40170 Shah Alam, Selangor",
      "latitude": 3.0995,
      "longitude": 101.4452,
      "store_type": "pharmacy"
    },
    {
      "store_id": "STR014",
      "name": "NSK Trade City Kuchai Lama",
      "address": "Jalan Kuchai Lama, 58200 Kuala Lumpur",
      "latitude": 3.0903,
      "longitude": 101.6858,
      "store_type": "hypermarket"
    },
    {
      "store_id": "STR015",
      "name": "99 Speedmart Sungai Buloh",
      "address": "Jalan Sungai Buloh, Kampung Baru Sungai Buloh, 47000 Selangor",
      "latitude": 3.2235,
      "longitude": 101.5676,
      "store_type": "grocery"
    },
    {
      "store_id": "STR016",
      "name": "TF Value-Mart Selayang",
      "address": "Jalan 3A/27A, Selayang Baru, 68100 Batu Caves, Selangor",
      "latitude": 3.2576,
      "longitude": 101.6538,
      "store_type": "supermarket"
    },
    {
      "store_id": "STR017",
      "name": "Caring Pharmacy Sunway",
      "address": "Sunway Pyramid, Jalan PJS 11/15, 47500 Petaling Jaya, Selangor",
      "latitude": 3.0724,
      "longitude": 101.6078,
      "store_type": "pharmacy"
    },
    {
      "store_id": "STR018",
      "name": "KK Supermart Rawang",
      "address": "Jalan Batu Arang, Taman Velox, 48000 Rawang, Selangor",
      "latitude": 3.3214,
      "longitude": 101.5766,
      "store_type": "grocery"
    },
    {
      "store_id": "STR019",
      "name": "Aeon Big Wangsa Maju",
      "address": "Jalan Genting Klang, Setapak, 53300 Kuala Lumpur",
      "latitude": 3.2003,
      "longitude": 101.7286,
      "store_type": "hypermarket"
    },
    {
      "store_id": "STR020",
      "name": "99 Speedmart Sri Petaling",
      "address": "Jalan Radin Tengah, Sri Petaling, 57000 Kuala Lumpur",
      "latitude": 3.0833,
      "longitude": 101.6916,
      "store_type": "grocery"
    }
  ]
}
